[
  {
    "id": 145,
    "name": "Parian este",
    "imageUrl": "https://raw.githubusercontent.com/ogden11/OGDEN-JUCUTAN/master/0.jpg",
    "price": 90,
    "priceCurrency": "PESO",
    "lat": 16.516755,
    "lng": 120.323370
  },
  {
    "id": 148,
    "name": "Batanes",
    "imageUrl": "https://raw.githubusercontent.com/ogden11/OGDEN-JUCUTAN/master/1.jpg",
    "price": 200,
    "priceCurrency": "PESO",
    "lat": 20.448507,
    "lng": 121.970813
  },
  {
    "id": 201,
    "name": "El Nido Palawan",
    "imageUrl": "https://raw.githubusercontent.com/ogden11/OGDEN-JUCUTAN/master/2.jpg",
    "price": 150,
    "priceCurrency": "PESO",
    "lat": 11.209709,
    "lng": 119.462254
  },
  {
    "id": 205,
    "name": "Siargao",
    "imageUrl": "https://raw.githubusercontent.com/ogden11/OGDEN-JUCUTAN/master/3.jpg",
    "price": 115,
    "priceCurrency": "PESO",
    "lat": 9.829708,
    "lng": 124.139676
  },
  {
    "id": 210,
    "name": "Cebu",
    "imageUrl": "https://raw.githubusercontent.com/ogden11/OGDEN-JUCUTAN/master/4.jpg",
    "price": 135,
    "priceCurrency": "PESO",
    "lat": 10.607936,
    "lng": 123.885775
  },
  {
    "id": 211,
    "name": "Boracay",
    "imageUrl": "https://raw.githubusercontent.com/ogden11/OGDEN-JUCUTAN/master/5.jpg",
    "price": 90,
    "priceCurrency": "PESO",
    "lat": 11.967375,
    "lng": 121.924815 
  }
]
