[
  {
    "id": 145,
    "name": "Parian este",
    "imageUrl": "https://raw.githubusercontent.com/ogden11/OGDEN-JUCUTAN/master/0.jpg",
    "price": 0,
    "priceCurrency": "km",
    "lat": 16.516755,
    "lng": 120.323370
  },
  {
    "id": 148,
    "name": "Batanes",
    "imageUrl": "https://raw.githubusercontent.com/ogden11/OGDEN-JUCUTAN/master/1.jpg",
    "price": 469,
    "priceCurrency": "km",
    "lat": 20.448507,
    "lng": 121.970813
  },
  {
    "id": 201,
    "name": "El Nido Palawan",
    "imageUrl": "https://raw.githubusercontent.com/ogden11/OGDEN-JUCUTAN/master/2.jpg",
    "price": 877.9,
    "priceCurrency": "km",
    "lat": 11.209709,
    "lng": 119.462254
  },
  {
    "id": 205,
    "name": "Siargao",
    "imageUrl": "https://raw.githubusercontent.com/ogden11/OGDEN-JUCUTAN/master/3.jpg",
    "price": 963,
    "priceCurrency": "km",
    "lat": 9.829708,
    "lng": 124.139676
  },
  {
    "id": 210,
    "name": "Cebu",
    "imageUrl": "https://raw.githubusercontent.com/ogden11/OGDEN-JUCUTAN/master/4.jpg",
    "price": 230,
    "priceCurrency": "km",
    "lat": 10.607936,
    "lng": 123.885775
  },
  {
    "id": 211,
    "name": "Boracay",
    "imageUrl": "https://raw.githubusercontent.com/ogden11/OGDEN-JUCUTAN/master/5.jpg",
    "price": 703,
    "priceCurrency": "km",
    "lat": 11.967375,
    "lng": 121.924815 
  },
   {
    "id": 212,
    "name": "Coron Palawan",
    "imageUrl": "https://raw.githubusercontent.com/ogden11/OGDEN-JUCUTAN/master/6.jpg",
    "price": 704,
    "priceCurrency": "km",
    "lat": 12.049926,
    "lng": 120.178175
  },
   {
    "id": 213,
    "name": "Puerto Prinsesa",
    "imageUrl": "https://raw.githubusercontent.com/ogden11/OGDEN-JUCUTAN/master/7.jpg",
    "price": 1,028,
    "priceCurrency": "km",
    "lat": 9.967216,
    "lng": 118.785510 
  },
   {
    "id": 214,
    "name": "Kawasan Falls Cebu",
    "imageUrl": "https://raw.githubusercontent.com/ogden11/OGDEN-JUCUTAN/master/8.jpg",
    "price": 1,157 ,
    "priceCurrency": "km",
    "lat": 9.802355,
    "lng": 123.374153
  },
   {
    "id": 215,
    "name": "Zambales",
    "imageUrl": "https://raw.githubusercontent.com/ogden11/OGDEN-JUCUTAN/master/9.jpg",
    "price": 206.4,
    "priceCurrency": "km",
    "lat": 15.508177,
    "lng": 119.969781 
  },
   {
    "id": 216,
    "name": "Batangas",
    "imageUrl": "https://raw.githubusercontent.com/ogden11/OGDEN-JUCUTAN/master/10.jpg",
    "price": 343.4,
    "priceCurrency": "km",
    "lat": 13.945034,
    "lng": 121.131201
  },
   {
    "id": 217,
    "name": "Tagaytay",
    "imageUrl": "https://raw.githubusercontent.com/ogden11/OGDEN-JUCUTAN/master/11.jpg",
    "price": 330.2,
    "priceCurrency": "km",
    "lat": 14.115286,
    "lng": 120.962116
  },
   {
    "id": 218,
    "name": "Mayon Volcano",
    "imageUrl": "https://raw.githubusercontent.com/ogden11/OGDEN-JUCUTAN/master/12.jpg",
    "price": 753.1,
    "priceCurrency": "km",
    "lat": 13.254832,
    "lng": 123.686112
  }
]
